{"type":"FeatureCollection","features":[{"type":"Feature","properties":{"name":"Sequel","Address":"1900 1st Ave.","City":"Seattle","Zip":981011011,"address":"1900 1st Ave., Seattle, WA 981011011","units":93,"built":2016},"geometry":{"type":"Point","coordinates":[-122.3413614,47.6103748]}},{"type":"Feature","properties":{"name":"Volta Apartments","Address":"2233 1st Ave.","City":"Seattle","Zip":98121,"address":"2233 1st Ave., Seattle, WA 98121","units":30,"built":2013},"geometry":{"type":"Point","coordinates":[-122.3466046,47.6130811]}},{"type":"Feature","properties":{"name":"Vivid Apartments","Address":"219 1st Ave. N.","City":"Seattle","Zip":981094893,"address":"219 1st Ave. N., Seattle, WA 981094893","units":45,"built":2017},"geometry":{"type":"Point","coordinates":[-122.3558102,47.6204358]}},{"type":"Feature","properties":{"name":"The Astro","Address":"315 1st Ave. N.","City":"Seattle","Zip":981094502,"address":"315 1st Ave. N., Seattle, WA 981094502","units":211,"built":2015},"geometry":{"type":"Point","coordinates":[-122.355807,47.621519]}},{"type":"Feature","properties":{"name":"Alcove","Address":"12037 1st Ave. S.","City":"Seattle","Zip":981685041,"address":"12037 1st Ave. S., Seattle, WA 981685041","units":41,"built":2014},"geometry":{"type":"Point","coordinates":[-122.3346333,47.4948165]}},{"type":"Feature","properties":{"name":"Cora Apartments","Address":"350 1st Ave. W.","City":"Seattle","Zip":981194104,"address":"350 1st Ave. W., Seattle, WA 981194104","units":75,"built":2017},"geometry":{"type":"Point","coordinates":[-122.3578478,47.6217826]}},{"type":"Feature","properties":{"name":"","Address":"509 1st Ave. W.","City":"Seattle","Zip":981193925,"address":"509 1st Ave. W., Seattle, WA 981193925","units":34,"built":2014},"geometry":{"type":"Point","coordinates":[-122.3584047,47.6236149]}},{"type":"Feature","properties":{"name":"Helios Apartments","Address":"1600 2nd Ave.","City":"Seattle","Zip":98101,"address":"1600 2nd Ave., Seattle, WA 98101","units":399,"built":2017},"geometry":{"type":"Point","coordinates":[-122.3397431,47.6106862]}},{"type":"Feature","properties":{"name":"Viktoria","Address":"1915 2nd Ave.","City":"Seattle","Zip":98101,"address":"1915 2nd Ave., Seattle, WA 98101","units":251,"built":2014},"geometry":{"type":"Point","coordinates":[-122.3411772,47.6110417]}},{"type":"Feature","properties":{"name":"Tower 12 Apartments","Address":"2015 2nd Ave.","City":"Seattle","Zip":981212205,"address":"2015 2nd Ave., Seattle, WA 981212205","units":314,"built":2017},"geometry":{"type":"Point","coordinates":[-122.3424337,47.6117795]}},{"type":"Feature","properties":{"name":"Arrowhead Gardens","Address":"9200 2nd Ave. S.W.","City":"Seattle","Zip":98106,"address":"9200 2nd Ave. S.W., Seattle, WA 98106","units":449,"built":2010},"geometry":{"type":"Point","coordinates":[-122.3354909,47.5212333]}},{"type":"Feature","properties":{"name":"Queen Anne Flats","Address":"521 2nd Ave. W.","City":"Seattle","Zip":981193927,"address":"521 2nd Ave. W., Seattle, WA 981193927","units":33,"built":2015},"geometry":{"type":"Point","coordinates":[-122.3597207,47.6239561]}},{"type":"Feature","properties":{"name":"Sylvia's Place","Address":"2013 3rd Ave.","City":"Seattle","Zip":981212412,"address":"2013 3rd Ave., Seattle, WA 981212412","units":65,"built":2015},"geometry":{"type":"Point","coordinates":[-122.3416688,47.6125091]}},{"type":"Feature","properties":{"name":"Emmons on 3rd","Address":"2217 3rd Ave.","City":"Seattle","Zip":981212018,"address":"2217 3rd Ave., Seattle, WA 981212018","units":49,"built":2014},"geometry":{"type":"Point","coordinates":[-122.3443178,47.6140955]}},{"type":"Feature","properties":{"name":"Latitude Queen Anne","Address":"500 3rd Ave. W.","City":"Seattle","Zip":98119,"address":"500 3rd Ave. W., Seattle, WA 98119","units":74,"built":2014},"geometry":{"type":"Point","coordinates":[-122.360317,47.6236255]}},{"type":"Feature","properties":{"name":"AVA Queen Anne","Address":"300 3rd Ave. W.","City":"Seattle","Zip":98119,"address":"300 3rd Ave. W., Seattle, WA 98119","units":203,"built":2012},"geometry":{"type":"Point","coordinates":[-122.3603183,47.6213612]}},{"type":"Feature","properties":{"name":"Verve","Address":"2720 4th Ave.","City":"Seattle","Zip":98121,"address":"2720 4th Ave., Seattle, WA 98121","units":161,"built":2014},"geometry":{"type":"Point","coordinates":[-122.3483934,47.618318]}},{"type":"Feature","properties":{"name":"The Martin","Address":"2105 5th Ave.","City":"Seattle","Zip":98121,"address":"2105 5th Ave., Seattle, WA 98121","units":188,"built":2013},"geometry":{"type":"Point","coordinates":[-122.3410102,47.6144471]}},{"type":"Feature","properties":{"name":"Aperture on Fifth","Address":"206 5th Ave. N.","City":"Seattle","Zip":981095001,"address":"206 5th Ave. N., Seattle, WA 981095001","units":106,"built":2014},"geometry":{"type":"Point","coordinates":[-122.3472324,47.6200013]}},{"type":"Feature","properties":{"name":"Via 6","Address":"2121 6th Ave.","City":"Seattle","Zip":98121,"address":"2121 6th Ave., Seattle, WA 98121","units":654,"built":2013},"geometry":{"type":"Point","coordinates":[-122.3401653,47.61513]}},{"type":"Feature","properties":{"name":"Insignia","Address":"2301 6th Ave.","City":"Seattle","Zip":981211812,"address":"2301 6th Ave., Seattle, WA 981211812","units":348,"built":2015},"geometry":{"type":"Point","coordinates":[-122.343297,47.616748]}},{"type":"Feature","properties":{"name":"Insignia - Phase II","Address":"2301 6th Ave.","City":"Seattle","Zip":981211812,"address":"2301 6th Ave., Seattle, WA 981211812","units":348,"built":2016},"geometry":{"type":"Point","coordinates":[-122.343297,47.616748]}},{"type":"Feature","properties":{"name":"708 Uptown","Address":"708 6th Ave. N.","City":"Seattle","Zip":98109,"address":"708 6th Ave. N., Seattle, WA 98109","units":118,"built":2012},"geometry":{"type":"Point","coordinates":[-122.3443309,47.6258374]}},{"type":"Feature","properties":{"name":"Studio 7","Address":"4029 7th Ave. N.E.","City":"Seattle","Zip":981056478,"address":"4029 7th Ave. N.E., Seattle, WA 981056478","units":72,"built":2014},"geometry":{"type":"Point","coordinates":[-122.3211764,47.6564105]}},{"type":"Feature","properties":{"name":"Pomelo Heights","Address":"4229 7th Ave. N.E.","City":"Seattle","Zip":981056002,"address":"4229 7th Ave. N.E., Seattle, WA 981056002","units":23,"built":2017},"geometry":{"type":"Point","coordinates":[-122.3210845,47.6584163]}},{"type":"Feature","properties":{"name":"47+7","Address":"4558 7th Ave. N.E.","City":"Seattle","Zip":98105,"address":"4558 7th Ave. N.E., Seattle, WA 98105","units":24,"built":2015},"geometry":{"type":"Point","coordinates":[-122.320387,47.663013]}},{"type":"Feature","properties":{"name":"Cirrus","Address":"2030 8th Ave.","City":"Seattle","Zip":98121,"address":"2030 8th Ave., Seattle, WA 98121","units":355,"built":2015},"geometry":{"type":"Point","coordinates":[-122.3373758,47.6165156]}},{"type":"Feature","properties":{"name":"Mark on 8th","Address":"285 8th Ave. N.","City":"Seattle","Zip":981095115,"address":"285 8th Ave. N., Seattle, WA 981095115","units":174,"built":2016},"geometry":{"type":"Point","coordinates":[-122.3411165,47.6206647]}},{"type":"Feature","properties":{"name":"8th and Republican","Address":"430 8th Ave. N.","City":"Seattle","Zip":981094705,"address":"430 8th Ave. N., Seattle, WA 981094705","units":211,"built":2016},"geometry":{"type":"Point","coordinates":[-122.3406958,47.6227619]}},{"type":"Feature","properties":{"name":"The Courtyard","Address":"4039 8th Ave. N.E.","City":"Seattle","Zip":981056480,"address":"4039 8th Ave. N.E., Seattle, WA 981056480","units":59,"built":2015},"geometry":{"type":"Point","coordinates":[-122.320121,47.656718]}},{"type":"Feature","properties":{"name":"Lavita","Address":"4055 8th Ave. N.E.","City":"Seattle","Zip":981056406,"address":"4055 8th Ave. N.E., Seattle, WA 981056406","units":65,"built":2014},"geometry":{"type":"Point","coordinates":[-122.320119,47.657228]}},{"type":"Feature","properties":{"name":"Lightbox","Address":"4545 8th Ave. N.E.","City":"Seattle","Zip":98105,"address":"4545 8th Ave. N.E., Seattle, WA 98105","units":162,"built":2014},"geometry":{"type":"Point","coordinates":[-122.3199076,47.6623587]}},{"type":"Feature","properties":{"name":"Premiere on Pine","Address":"1529 9th Ave.","City":"Seattle","Zip":981011814,"address":"1529 9th Ave., Seattle, WA 981011814","units":386,"built":2014},"geometry":{"type":"Point","coordinates":[-122.332223,47.613237]}},{"type":"Feature","properties":{"name":"Nine and Pine","Address":"1601 9th Ave.","City":"Seattle","Zip":98101,"address":"1601 9th Ave., Seattle, WA 98101","units":74,"built":2015},"geometry":{"type":"Point","coordinates":[-122.332412,47.6137562]}},{"type":"Feature","properties":{"name":"Alder Flats","Address":"220 10th Ave.","City":"Seattle","Zip":981225352,"address":"220 10th Ave., Seattle, WA 981225352","units":105,"built":2013},"geometry":{"type":"Point","coordinates":[-122.3190317,47.604188]}},{"type":"Feature","properties":{"name":"Footprint Emerald 10","Address":"315 10th Ave.","City":"Seattle","Zip":981225586,"address":"315 10th Ave., Seattle, WA 981225586","units":35,"built":2012},"geometry":{"type":"Point","coordinates":[-122.3197302,47.6048244]}},{"type":"Feature","properties":{"name":null,"Address":"1414 10th Ave.","City":"Seattle","Zip":981223857,"address":"1414 10th Ave., Seattle, WA 981223857","units":248,"built":2015},"geometry":{"type":"Point","coordinates":[-122.3190897,47.6133527]}},{"type":"Feature","properties":{"name":"Ramiro's Place","Address":"200 10th Ave. E.","City":"Seattle","Zip":981025720,"address":"200 10th Ave. E., Seattle, WA 981025720","units":22,"built":2014},"geometry":{"type":"Point","coordinates":[-122.3192851,47.6200674]}},{"type":"Feature","properties":{"name":"The Lyric","Address":"215 10th Ave. E.","City":"Seattle","Zip":98102,"address":"215 10th Ave. E., Seattle, WA 98102","units":234,"built":2012},"geometry":{"type":"Point","coordinates":[-122.3198568,47.6206301]}},{"type":"Feature","properties":{"name":"Hoa Mai Gardens","Address":"221 10th Ave. E.","City":"Seattle","Zip":981025719,"address":"221 10th Ave. E., Seattle, WA 981025719","units":111,"built":2017},"geometry":{"type":"Point","coordinates":[-122.3195533,47.6206907]}},{"type":"Feature","properties":{"name":"Gatsby Apartments","Address":"1145 10th Ave. E.","City":"Seattle","Zip":981024321,"address":"1145 10th Ave. E., Seattle, WA 981024321","units":70,"built":2014},"geometry":{"type":"Point","coordinates":[-122.3207667,47.6301277]}},{"type":"Feature","properties":{"name":"Modera Capitol Hill","Address":"1427 11th Ave.","City":"Seattle","Zip":981223901,"address":"1427 11th Ave., Seattle, WA 981223901","units":135,"built":2016},"geometry":{"type":"Point","coordinates":[-122.3183251,47.613651]}},{"type":"Feature","properties":{"name":"Footprint Eleventh","Address":"422 11th Ave. E.","City":"Seattle","Zip":981025498,"address":"422 11th Ave. E., Seattle, WA 981025498","units":54,"built":2014},"geometry":{"type":"Point","coordinates":[-122.3175063,47.6226254]}},{"type":"Feature","properties":{"name":"Bridges @ 11th","Address":"4557 11th Ave. N.E.","City":"Seattle","Zip":981054609,"address":"4557 11th Ave. N.E., Seattle, WA 981054609","units":184,"built":2015},"geometry":{"type":"Point","coordinates":[-122.3167402,47.6623988]}},{"type":"Feature","properties":{"name":"Anthem on 12th","Address":"103 12th Ave.","City":"Seattle","Zip":981225407,"address":"103 12th Ave., Seattle, WA 981225407","units":120,"built":2015},"geometry":{"type":"Point","coordinates":[-122.3171148,47.602033]}},{"type":"Feature","properties":{"name":"Firenze","Address":"151 12th Ave.","City":"Seattle","Zip":981225435,"address":"151 12th Ave., Seattle, WA 981225435","units":93,"built":2016},"geometry":{"type":"Point","coordinates":[-122.3172393,47.6028429]}},{"type":"Feature","properties":{"name":"Decibel","Address":"301 12th Ave.","City":"Seattle","Zip":981225504,"address":"301 12th Ave., Seattle, WA 981225504","units":75,"built":2016},"geometry":{"type":"Point","coordinates":[-122.3170695,47.6045189]}},{"type":"Feature","properties":{"name":"12th Ave. Arts","Address":"1620 12th Ave.","City":"Seattle","Zip":98122,"address":"1620 12th Ave., Seattle, WA 98122","units":88,"built":2014},"geometry":{"type":"Point","coordinates":[-122.3165489,47.6156492]}},{"type":"Feature","properties":{"name":"1711 12th Ave. Apartments","Address":"1711 12th Ave.","City":"Seattle","Zip":981222435,"address":"1711 12th Ave., Seattle, WA 981222435","units":37,"built":2014},"geometry":{"type":"Point","coordinates":[-122.3172733,47.6167707]}},{"type":"Feature","properties":{"name":"BASE Capitol Hill","Address":"1728 12th Ave.","City":"Seattle","Zip":981222436,"address":"1728 12th Ave., Seattle, WA 981222436","units":32,"built":2014},"geometry":{"type":"Point","coordinates":[-122.3166065,47.6172992]}},{"type":"Feature","properties":{"name":"Footprint Cal Park","Address":"1806-1812 12th Ave.","City":"Seattle","Zip":981222438,"address":"1806-1812 12th Ave., Seattle, WA 981222438","units":78,"built":2014},"geometry":{"type":"Point","coordinates":[-122.3164672,47.6180247]}},{"type":"Feature","properties":{"name":"Sola 24","Address":"109 12th Ave. E.","City":"Seattle","Zip":981025803,"address":"109 12th Ave. E., Seattle, WA 981025803","units":23,"built":2014},"geometry":{"type":"Point","coordinates":[-122.317305,47.6191117]}},{"type":"Feature","properties":{"name":"Identity Seattle","Address":"4106 12th Ave. N.E.","City":"Seattle","Zip":981056308,"address":"4106 12th Ave. N.E., Seattle, WA 981056308","units":198,"built":2014},"geometry":{"type":"Point","coordinates":[-122.3152592,47.6571071]}},{"type":"Feature","properties":{"name":"Twelve at U District","Address":"4535 12th Ave. N.E.","City":"Seattle","Zip":981054542,"address":"4535 12th Ave. N.E., Seattle, WA 981054542","units":283,"built":2014},"geometry":{"type":"Point","coordinates":[-122.31573,47.6625195]}},{"type":"Feature","properties":{"name":"Holgate 12 Apartments","Address":"1814 12th Ave. S.","City":"Seattle","Zip":981444104,"address":"1814 12th Ave. S., Seattle, WA 981444104","units":22,"built":2015},"geometry":{"type":"Point","coordinates":[-122.3169105,47.5865368]}},{"type":"Feature","properties":{"name":"Collins on Pine","Address":"1601 13th Ave.","City":"Seattle","Zip":98122,"address":"1601 13th Ave., Seattle, WA 98122","units":76,"built":2014},"geometry":{"type":"Point","coordinates":[-122.315733,47.6155111]}},{"type":"Feature","properties":{"name":"Footprint OneOne6","Address":"116 13th Ave. E.","City":"Seattle","Zip":981026142,"address":"116 13th Ave. E., Seattle, WA 981026142","units":57,"built":2013},"geometry":{"type":"Point","coordinates":[-122.3152407,47.6192861]}},{"type":"Feature","properties":{"name":"Reo Flats","Address":"1525 14th Ave.","City":"Seattle","Zip":981224023,"address":"1525 14th Ave., Seattle, WA 981224023","units":108,"built":2014},"geometry":{"type":"Point","coordinates":[-122.3144085,47.614911]}},{"type":"Feature","properties":{"name":"AVA Ballard","Address":"5555 14th Ave. N.W.","City":"Seattle","Zip":98107,"address":"5555 14th Ave. N.W., Seattle, WA 98107","units":265,"built":2013},"geometry":{"type":"Point","coordinates":[-122.3740294,47.6691988]}},{"type":"Feature","properties":{"name":"The Qualman Apartments","Address":"1421 15th Ave.","City":"Seattle","Zip":981224101,"address":"1421 15th Ave., Seattle, WA 981224101","units":26,"built":2016},"geometry":{"type":"Point","coordinates":[-122.3131616,47.6136118]}},{"type":"Feature","properties":{"name":"Vox","Address":"1527 15th Ave.","City":"Seattle","Zip":981224007,"address":"1527 15th Ave., Seattle, WA 981224007","units":57,"built":2013},"geometry":{"type":"Point","coordinates":[-122.3131042,47.6150801]}},{"type":"Feature","properties":{"name":"Stream Fifteen","Address":"605 15th Ave. E.","City":"Seattle","Zip":981124523,"address":"605 15th Ave. E., Seattle, WA 981124523","units":34,"built":2015},"geometry":{"type":"Point","coordinates":[-122.3128853,47.624409]}},{"type":"Feature","properties":{"name":"Belay Apartments","Address":"6559 15th Ave. N.W.","City":"Seattle","Zip":981175506,"address":"6559 15th Ave. N.W., Seattle, WA 981175506","units":104,"built":2013},"geometry":{"type":"Point","coordinates":[-122.3769903,47.6773064]}},{"type":"Feature","properties":{"name":"Lillehammer","Address":"7016 15th Ave. N.W.","City":"Seattle","Zip":981175599,"address":"7016 15th Ave. N.W., Seattle, WA 981175599","units":90,"built":2017},"geometry":{"type":"Point","coordinates":[-122.3764892,47.6800269]}},{"type":"Feature","properties":{"name":"Noba Apartments","Address":"8022 15th Ave. N.W.","City":"Seattle","Zip":981173601,"address":"8022 15th Ave. N.W., Seattle, WA 981173601","units":51,"built":2013},"geometry":{"type":"Point","coordinates":[-122.3763932,47.687489]}},{"type":"Feature","properties":{"name":"Duo","Address":"8026 15th Ave. N.W.","City":"Seattle","Zip":981173661,"address":"8026 15th Ave. N.W., Seattle, WA 981173661","units":25,"built":2014},"geometry":{"type":"Point","coordinates":[-122.3764755,47.6877341]}},{"type":"Feature","properties":{"name":"Harlow Heights","Address":"4351 15th Ave. S.","City":"Seattle","Zip":98108,"address":"4351 15th Ave. S., Seattle, WA 98108","units":39,"built":2017},"geometry":{"type":"Point","coordinates":[-122.3138854,47.5638182]}},{"type":"Feature","properties":{"name":"","Address":"4503 15th Ave. S.","City":"Seattle","Zip":981081819,"address":"4503 15th Ave. S., Seattle, WA 981081819","units":4,"built":2016},"geometry":{"type":"Point","coordinates":[-122.3139319,47.5633548]}},{"type":"Feature","properties":{"name":"Interbay Place","Address":"2208 15th Ave. W.","City":"Seattle","Zip":981192418,"address":"2208 15th Ave. W., Seattle, WA 981192418","units":97,"built":2015},"geometry":{"type":"Point","coordinates":[-122.3757689,47.6391509]}},{"type":"Feature","properties":{"name":"Eastbay Apartments","Address":"3232 15th Ave. W.","City":"Seattle","Zip":98119,"address":"3232 15th Ave. W., Seattle, WA 98119","units":12,"built":2011},"geometry":{"type":"Point","coordinates":[-122.3758083,47.6495062]}},{"type":"Feature","properties":{"name":"DubSea Apartments","Address":"11060 16th Ave. S.W.","City":"Seattle","Zip":981462008,"address":"11060 16th Ave. S.W., Seattle, WA 981462008","units":42,"built":2016},"geometry":{"type":"Point","coordinates":[-122.3546303,47.5033748]}},{"type":"Feature","properties":{"name":"The Flats at Interbay","Address":"3036 16th Ave. W.","City":"Seattle","Zip":981192029,"address":"3036 16th Ave. W., Seattle, WA 981192029","units":117,"built":2014},"geometry":{"type":"Point","coordinates":[-122.3771374,47.6475104]}},{"type":"Feature","properties":{"name":"Jupiter","Address":"155 17th Ave.","City":"Seattle","Zip":981225738,"address":"155 17th Ave., Seattle, WA 981225738","units":45,"built":2015},"geometry":{"type":"Point","coordinates":[-122.3104656,47.6029601]}},{"type":"Feature","properties":{"name":"Slate Apartments","Address":"3040 17th Ave. W.","City":"Seattle","Zip":981192284,"address":"3040 17th Ave. W., Seattle, WA 981192284","units":244,"built":2013},"geometry":{"type":"Point","coordinates":[-122.3781515,47.6479415]}},{"type":"Feature","properties":{"name":"Denny 18","Address":"1823 18th Ave.","City":"Seattle","Zip":981222742,"address":"1823 18th Ave., Seattle, WA 981222742","units":34,"built":2016},"geometry":{"type":"Point","coordinates":[-122.3091439,47.6183474]}},{"type":"Feature","properties":{"name":"Ruth Court","Address":"123 18th Ave. E.","City":"Seattle","Zip":981125215,"address":"123 18th Ave. E., Seattle, WA 981125215","units":64,"built":2016},"geometry":{"type":"Point","coordinates":[-122.309206,47.619214]}},{"type":"Feature","properties":{"name":"Lavender Apartments","Address":"4519 18th Ave. N.E.","City":"Seattle","Zip":981054205,"address":"4519 18th Ave. N.E., Seattle, WA 981054205","units":28,"built":2017},"geometry":{"type":"Point","coordinates":[-122.3086402,47.6618517]}},{"type":"Feature","properties":{"name":"Cantor Studios","Address":"4754 18th Ave. N.E.","City":"Seattle","Zip":981054215,"address":"4754 18th Ave. N.E., Seattle, WA 981054215","units":40,"built":2016},"geometry":{"type":"Point","coordinates":[-122.3080092,47.6646279]}},{"type":"Feature","properties":{"name":"19th & E. Mercer","Address":"526 19th Ave. E.","City":"Seattle","Zip":98112,"address":"526 19th Ave. E., Seattle, WA 98112","units":54,"built":2013},"geometry":{"type":"Point","coordinates":[-122.3069314,47.6241074]}},{"type":"Feature","properties":{"name":"Sedona Apartments","Address":"8520 20th Ave. N.E.","City":"Seattle","Zip":981153222,"address":"8520 20th Ave. N.E., Seattle, WA 981153222","units":80,"built":2015},"geometry":{"type":"Point","coordinates":[-122.3068716,47.6907718]}},{"type":"Feature","properties":{"name":"Blue Stone","Address":"9051 20th Ave. S.W.","City":"Seattle","Zip":981062381,"address":"9051 20th Ave. S.W., Seattle, WA 981062381","units":41,"built":2017},"geometry":{"type":"Point","coordinates":[-122.3594135,47.5213732]}},{"type":"Feature","properties":{"name":"Session","Address":"1717 22nd Ave.","City":"Seattle","Zip":981222915,"address":"1717 22nd Ave., Seattle, WA 981222915","units":96,"built":2016},"geometry":{"type":"Point","coordinates":[-122.3037895,47.6173607]}},{"type":"Feature","properties":{"name":"Varsity Treehouse","Address":"4724 22nd Ave. N.E.","City":"Seattle","Zip":981055705,"address":"4724 22nd Ave. N.E., Seattle, WA 981055705","units":34,"built":2016},"geometry":{"type":"Point","coordinates":[-122.3037948,47.6638863]}},{"type":"Feature","properties":{"name":"The Commons @ Ballard","Address":"5621 22nd Ave. N.W.","City":"Seattle","Zip":981073119,"address":"5621 22nd Ave. N.W., Seattle, WA 981073119","units":84,"built":2016},"geometry":{"type":"Point","coordinates":[-122.3851226,47.6696437]}},{"type":"Feature","properties":{"name":"Footprint 1806","Address":"1806 23rd Ave.","City":"Seattle","Zip":981222924,"address":"1806 23rd Ave., Seattle, WA 981222924","units":61,"built":2014},"geometry":{"type":"Point","coordinates":[-122.3022165,47.617953]}},{"type":"Feature","properties":{"name":"Monica's Village Place I","Address":"140 23rd Ave. S.","City":"Seattle","Zip":981444361,"address":"140 23rd Ave. S., Seattle, WA 981444361","units":51,"built":2010},"geometry":{"type":"Point","coordinates":[-122.301743,47.6005872]}},{"type":"Feature","properties":{"name":"Merrill Gardens at Ballard","Address":"5601 24th Ave. N.W.","City":"Seattle","Zip":981074104,"address":"5601 24th Ave. N.W., Seattle, WA 981074104","units":104,"built":2016},"geometry":{"type":"Point","coordinates":[-122.3879222,47.6696684]}},{"type":"Feature","properties":{"name":"Soren Apartments","Address":"5711 24th Ave. N.W.","City":"Seattle","Zip":981073203,"address":"5711 24th Ave. N.W., Seattle, WA 981073203","units":111,"built":2014},"geometry":{"type":"Point","coordinates":[-122.3879362,47.6705569]}},{"type":"Feature","properties":{"name":"Ballard Public Lofts & Market","Address":"6450 24th Ave. N.W.","City":"Seattle","Zip":981072424,"address":"6450 24th Ave. N.W., Seattle, WA 981072424","units":99,"built":2016},"geometry":{"type":"Point","coordinates":[-122.3875975,47.6756774]}},{"type":"Feature","properties":{"name":"","Address":"1915 25th Ave. S.","City":"Seattle","Zip":981444705,"address":"1915 25th Ave. S., Seattle, WA 981444705","units":8,"built":2011},"geometry":{"type":"Point","coordinates":[-122.3007415,47.5858544]}},{"type":"Feature","properties":{"name":"Youngstown Flats","Address":"4040 26th Ave. S.W.","City":"Seattle","Zip":981061263,"address":"4040 26th Ave. S.W., Seattle, WA 981061263","units":195,"built":2013},"geometry":{"type":"Point","coordinates":[-122.3649681,47.5670504]}},{"type":"Feature","properties":{"name":"Origin Apartments","Address":"12311 32nd Ave. N.E.","City":"Seattle","Zip":981255568,"address":"12311 32nd Ave. N.E., Seattle, WA 981255568","units":153,"built":2017},"geometry":{"type":"Point","coordinates":[-122.2943444,47.7178669]}},{"type":"Feature","properties":{"name":"CityLine","Address":"4730 32nd Ave. S.","City":"Seattle","Zip":981181702,"address":"4730 32nd Ave. S., Seattle, WA 981181702","units":244,"built":2015},"geometry":{"type":"Point","coordinates":[-122.2905723,47.5600851]}},{"type":"Feature","properties":{"name":"","Address":"12350 33rd N.E.","City":"Seattle","Zip":98125,"address":"12350 33rd N.E., Seattle, WA 98125","units":24,"built":2015},"geometry":{"type":"Point","coordinates":[-122.2923485,47.7189853]}},{"type":"Feature","properties":{"name":"Lake City Court","Address":"12536 33rd Ave. N.E.","City":"Seattle","Zip":981254526,"address":"12536 33rd Ave. N.E., Seattle, WA 981254526","units":86,"built":2011},"geometry":{"type":"Point","coordinates":[-122.291934,47.7202697]}},{"type":"Feature","properties":{"name":"AMLI Wallingford","Address":"1850 N. 34th Ave.","City":"Seattle","Zip":98103,"address":"1850 N. 34th Ave., Seattle, WA 98103","units":231,"built":2016},"geometry":{"type":"Point","coordinates":[-122.3356867,47.6480271]}},{"type":"Feature","properties":{"name":"MOD Apartments","Address":"6559 35th Ave. N.E.","City":"Seattle","Zip":981157390,"address":"6559 35th Ave. N.E., Seattle, WA 981157390","units":98,"built":2016},"geometry":{"type":"Point","coordinates":[-122.2910046,47.6771885]}},{"type":"Feature","properties":{"name":"Jasper Apartments","Address":"8606 35th Ave. N.E.","City":"Seattle","Zip":98115,"address":"8606 35th Ave. N.E., Seattle, WA 98115","units":91,"built":2012},"geometry":{"type":"Point","coordinates":[-122.29031,47.691293]}},{"type":"Feature","properties":{"name":"Aura West Seattle","Address":"4435 35th Ave. S.W.","City":"Seattle","Zip":981262635,"address":"4435 35th Ave. S.W., Seattle, WA 981262635","units":159,"built":2016},"geometry":{"type":"Point","coordinates":[-122.3765257,47.5634897]}},{"type":"Feature","properties":{"name":"NOVA","Address":"4600 36th Ave. S.W.","City":"Seattle","Zip":98126,"address":"4600 36th Ave. S.W., Seattle, WA 98126","units":62,"built":2012},"geometry":{"type":"Point","coordinates":[-122.3770216,47.5618217]}},{"type":"Feature","properties":{"name":"Link","Address":"4550 38th Ave. S.W.","City":"Seattle","Zip":981262768,"address":"4550 38th Ave. S.W., Seattle, WA 981262768","units":195,"built":2011},"geometry":{"type":"Point","coordinates":[-122.3797186,47.5613963]}},{"type":"Feature","properties":{"name":"Spruce","Address":"4555 39th Ave. S.W.","City":"Seattle","Zip":981164209,"address":"4555 39th Ave. S.W., Seattle, WA 981164209","units":217,"built":2015},"geometry":{"type":"Point","coordinates":[-122.3817277,47.5618353]}},{"type":"Feature","properties":{"name":"Broadstone Sky","Address":"4745 40th S.W.","City":"Seattle","Zip":98116,"address":"4745 40th S.W., Seattle, WA 98116","units":151,"built":2015},"geometry":{"type":"Point","coordinates":[-122.3831916,47.5597585]}},{"type":"Feature","properties":{"name":"REV Fremont","Address":"317 N. 41st St.","City":"Seattle","Zip":981075052,"address":"317 N. 41st St., Seattle, WA 981075052","units":49,"built":2013},"geometry":{"type":"Point","coordinates":[-122.3548729,47.656735]}},{"type":"Feature","properties":{"name":"Element 42","Address":"2641 42nd Ave. S.W.","City":"Seattle","Zip":98116,"address":"2641 42nd Ave. S.W., Seattle, WA 98116","units":78,"built":2011},"geometry":{"type":"Point","coordinates":[-122.3860706,47.5799318]}},{"type":"Feature","properties":{"name":"Junction Flats","Address":"4433 42nd Ave. S.W.","City":"Seattle","Zip":981164222,"address":"4433 42nd Ave. S.W., Seattle, WA 981164222","units":80,"built":2016},"geometry":{"type":"Point","coordinates":[-122.3857622,47.5637283]}},{"type":"Feature","properties":{"name":"Oregon 42","Address":"4502 42nd Ave. S.W.","City":"Seattle","Zip":98116,"address":"4502 42nd Ave. S.W., Seattle, WA 98116","units":133,"built":2014},"geometry":{"type":"Point","coordinates":[-122.385062,47.562722]}},{"type":"Feature","properties":{"name":"Altamira Apartments","Address":"4540 42nd Ave. S.W.","City":"Seattle","Zip":981164281,"address":"4540 42nd Ave. S.W., Seattle, WA 981164281","units":157,"built":2010},"geometry":{"type":"Point","coordinates":[-122.3847996,47.5614092]}},{"type":"Feature","properties":{"name":"Junction 47 Apartments","Address":"4715 42nd Ave. S.W.","City":"Seattle","Zip":98116,"address":"4715 42nd Ave. S.W., Seattle, WA 98116","units":206,"built":2015},"geometry":{"type":"Point","coordinates":[-122.3858727,47.560785]}},{"type":"Feature","properties":{"name":"The Vega","Address":"4528 44th Ave. S.W.","City":"Seattle","Zip":981164908,"address":"4528 44th Ave. S.W., Seattle, WA 981164908","units":58,"built":2017},"geometry":{"type":"Point","coordinates":[-122.3877504,47.5620361]}},{"type":"Feature","properties":{"name":"Lofts at the Junction","Address":"4535 44th Ave. S.W.","City":"Seattle","Zip":981164116,"address":"4535 44th Ave. S.W., Seattle, WA 981164116","units":38,"built":2015},"geometry":{"type":"Point","coordinates":[-122.3884052,47.561809]}},{"type":"Feature","properties":{"name":"Smith & Burns","Address":"1321 N. 45th St.","City":"Seattle","Zip":981036704,"address":"1321 N. 45th St., Seattle, WA 981036704","units":150,"built":2015},"geometry":{"type":"Point","coordinates":[-122.341093,47.661158]}},{"type":"Feature","properties":{"name":"Vive","Address":"1516 N.W. 51st St.","City":"Seattle","Zip":981074734,"address":"1516 N.W. 51st St., Seattle, WA 981074734","units":91,"built":2016},"geometry":{"type":"Point","coordinates":[-122.3771311,47.6659322]}},{"type":"Feature","properties":{"name":"","Address":"616 N.E. 53rd St.","City":"Seattle","Zip":981053638,"address":"616 N.E. 53rd St., Seattle, WA 981053638","units":15,"built":2012},"geometry":{"type":"Point","coordinates":[-122.3211202,47.6673331]}},{"type":"Feature","properties":{"name":"Urbana Apartments","Address":"1501 N.W. 56th St.","City":"Seattle","Zip":98107,"address":"1501 N.W. 56th St., Seattle, WA 98107","units":287,"built":2014},"geometry":{"type":"Point","coordinates":[-122.3772868,47.669111]}},{"type":"Feature","properties":{"name":"Keelson Ballard","Address":"1537 N.W. 56th St.","City":"Seattle","Zip":98107,"address":"1537 N.W. 56th St., Seattle, WA 98107","units":106,"built":2017},"geometry":{"type":"Point","coordinates":[-122.3780276,47.6692311]}},{"type":"Feature","properties":{"name":"Nyer Urness House","Address":"1753 N.W. 56th St.","City":"Seattle","Zip":981075279,"address":"1753 N.W. 56th St., Seattle, WA 981075279","units":80,"built":2012},"geometry":{"type":"Point","coordinates":[-122.3812084,47.6692189]}},{"type":"Feature","properties":{"name":"Vik Condominiums","Address":"1760 N.W. 56th St.","City":"Seattle","Zip":981075283,"address":"1760 N.W. 56th St., Seattle, WA 981075283","units":117,"built":2016},"geometry":{"type":"Point","coordinates":[-122.3815724,47.6696482]}},{"type":"Feature","properties":{"name":"Ballard57","Address":"1731 N.W. 57th St.","City":"Seattle","Zip":981073038,"address":"1731 N.W. 57th St., Seattle, WA 981073038","units":48,"built":2017},"geometry":{"type":"Point","coordinates":[-122.3803133,47.6699577]}},{"type":"Feature","properties":{"name":"Modera Ballard","Address":"2003 N.W. 57th St.","City":"Seattle","Zip":98107,"address":"2003 N.W. 57th St., Seattle, WA 98107","units":132,"built":2017},"geometry":{"type":"Point","coordinates":[-122.3825333,47.6699547]}},{"type":"Feature","properties":{"name":"Cheryl Chow Court","Address":"2010 N.W. 57th St.","City":"Seattle","Zip":981073131,"address":"2010 N.W. 57th St., Seattle, WA 981073131","units":50,"built":2015},"geometry":{"type":"Point","coordinates":[-122.3826104,47.6705443]}},{"type":"Feature","properties":{"name":"Solo Lofts","Address":"2018 N.W. 57th St.","City":"Seattle","Zip":98107,"address":"2018 N.W. 57th St., Seattle, WA 98107","units":20,"built":2015},"geometry":{"type":"Point","coordinates":[-122.383118,47.6703865]}},{"type":"Feature","properties":{"name":"On the Park","Address":"2233 N.W. 58th St.","City":"Seattle","Zip":981073136,"address":"2233 N.W. 58th St., Seattle, WA 981073136","units":268,"built":2010},"geometry":{"type":"Point","coordinates":[-122.3868691,47.670508]}},{"type":"Feature","properties":{"name":"","Address":"1761 N.W. 59th St.","City":"Seattle","Zip":981073050,"address":"1761 N.W. 59th St., Seattle, WA 981073050","units":25,"built":2015},"geometry":{"type":"Point","coordinates":[-122.3815182,47.6714525]}},{"type":"Feature","properties":{"name":"","Address":"6818 62nd Ave. N.E.","City":"Seattle","Zip":981155028,"address":"6818 62nd Ave. N.E., Seattle, WA 981155028","units":15,"built":2012},"geometry":{"type":"Point","coordinates":[-122.2615351,47.6783327]}},{"type":"Feature","properties":{"name":"Sand Point Family Apartments","Address":"6831 62nd Ave. N.E.","City":"Seattle","Zip":981155007,"address":"6831 62nd Ave. N.E., Seattle, WA 981155007","units":27,"built":2014},"geometry":{"type":"Point","coordinates":[-122.2629802,47.6779193]}},{"type":"Feature","properties":{"name":"Phyllis Guti√©rrez Kenney Place","Address":"6951 62nd Ave. N.E.","City":"Seattle","Zip":98115,"address":"6951 62nd Ave. N.E., Seattle, WA 98115","units":64,"built":2014},"geometry":{"type":"Point","coordinates":[-122.2628914,47.6789988]}},{"type":"Feature","properties":{"name":"","Address":"1431 N.W. 62nd St.","City":"Seattle","Zip":98107,"address":"1431 N.W. 62nd St., Seattle, WA 98107","units":6,"built":2013},"geometry":{"type":"Point","coordinates":[-122.3750903,47.673616]}},{"type":"Feature","properties":{"name":"Vitality on 62nd","Address":"1436 N.W. 62nd St.","City":"Seattle","Zip":981072925,"address":"1436 N.W. 62nd St., Seattle, WA 981072925","units":30,"built":2017},"geometry":{"type":"Point","coordinates":[-122.3752816,47.6740206]}},{"type":"Feature","properties":{"name":"Square One Apartments","Address":"1020 N.E. 63rd St.","City":"Seattle","Zip":98115,"address":"1020 N.E. 63rd St., Seattle, WA 98115","units":112,"built":2014},"geometry":{"type":"Point","coordinates":[-122.3165118,47.6744058]}},{"type":"Feature","properties":{"name":"","Address":"2048 N.W. 64th St.","City":"Seattle","Zip":98107,"address":"2048 N.W. 64th St., Seattle, WA 98107","units":8,"built":2014},"geometry":{"type":"Point","coordinates":[-122.384303,47.675511]}},{"type":"Feature","properties":{"name":"Rooster","Address":"900 N.E. 65th St.","City":"Seattle","Zip":981155542,"address":"900 N.E. 65th St., Seattle, WA 981155542","units":196,"built":2015},"geometry":{"type":"Point","coordinates":[-122.3182639,47.6760614]}},{"type":"Feature","properties":{"name":"Bryant Heights","Address":"3300 N.E. 65th St.","City":"Seattle","Zip":981157349,"address":"3300 N.E. 65th St., Seattle, WA 981157349","units":87,"built":2017},"geometry":{"type":"Point","coordinates":[-122.2922455,47.6761626]}},{"type":"Feature","properties":{"name":"Eleanor","Address":"800 N.E. 67th St.","City":"Seattle","Zip":981155556,"address":"800 N.E. 67th St., Seattle, WA 981155556","units":260,"built":2016},"geometry":{"type":"Point","coordinates":[-122.3194787,47.6774915]}},{"type":"Feature","properties":{"name":"Hendon Condominiums","Address":"300 N. 68th St.","City":"Seattle","Zip":981035212,"address":"300 N. 68th St., Seattle, WA 981035212","units":32,"built":2015},"geometry":{"type":"Point","coordinates":[-122.3552916,47.6787527]}},{"type":"Feature","properties":{"name":"Pladhus","Address":"838 N.E. 69th St.","City":"Seattle","Zip":981155550,"address":"838 N.E. 69th St., Seattle, WA 981155550","units":28,"built":2013},"geometry":{"type":"Point","coordinates":[-122.3182457,47.678945]}},{"type":"Feature","properties":{"name":"The Eddy at Green Lake Village","Address":"419 N.E. 71st St.","City":"Seattle","Zip":981155430,"address":"419 N.E. 71st St., Seattle, WA 981155430","units":130,"built":2017},"geometry":{"type":"Point","coordinates":[-122.3233434,47.6798272]}},{"type":"Feature","properties":{"name":"Green Lake Village","Address":"427 N.E. 72nd St.","City":"Seattle","Zip":981155408,"address":"427 N.E. 72nd St., Seattle, WA 981155408","units":297,"built":2014},"geometry":{"type":"Point","coordinates":[-122.3233582,47.6806097]}},{"type":"Feature","properties":{"name":"The Sedges Phase II","Address":"100 N. 85th St.","City":"Seattle","Zip":981033602,"address":"100 N. 85th St., Seattle, WA 981033602","units":6,"built":2013},"geometry":{"type":"Point","coordinates":[-122.3591247,47.6918895]}},{"type":"Feature","properties":{"name":"Footprint Greenwood","Address":"143 N. 85th St.","City":"Seattle","Zip":981033601,"address":"143 N. 85th St., Seattle, WA 981033601","units":39,"built":2014},"geometry":{"type":"Point","coordinates":[-122.3598029,47.6903917]}},{"type":"Feature","properties":{"name":"Janus Greenwood","Address":"101 N.W. 85th St.","City":"Seattle","Zip":981173047,"address":"101 N.W. 85th St., Seattle, WA 981173047","units":105,"built":2016},"geometry":{"type":"Point","coordinates":[-122.3583971,47.6903444]}},{"type":"Feature","properties":{"name":"Studio 85th","Address":"358 N.W. 85th St.","City":"Seattle","Zip":981173120,"address":"358 N.W. 85th St., Seattle, WA 981173120","units":32,"built":2014},"geometry":{"type":"Point","coordinates":[-122.3631522,47.6908728]}},{"type":"Feature","properties":{"name":"Gallaway Apartments","Address":"1126 N. 90th St.","City":"Seattle","Zip":981034002,"address":"1126 N. 90th St., Seattle, WA 981034002","units":8,"built":2015},"geometry":{"type":"Point","coordinates":[-122.3432054,47.6943765]}},{"type":"Feature","properties":{"name":"Unity Village at White Center","Address":"1318 S.W. 100th St.","City":"Seattle","Zip":981463733,"address":"1318 S.W. 100th St., Seattle, WA 981463733","units":30,"built":2011},"geometry":{"type":"Point","coordinates":[-122.3517691,47.5138887]}},{"type":"Feature","properties":{"name":"","Address":"310 N. 103rd St.","City":"Seattle","Zip":981339125,"address":"310 N. 103rd St., Seattle, WA 981339125","units":15,"built":2013},"geometry":{"type":"Point","coordinates":[-122.3549786,47.7038103]}},{"type":"Feature","properties":{"name":"Taylor Creek Apartments","Address":"7050 S. 116th Pl.","City":"Seattle","Zip":981783028,"address":"7050 S. 116th Pl., Seattle, WA 981783028","units":53,"built":2017},"geometry":{"type":"Point","coordinates":[-122.2434079,47.4980126]}},{"type":"Feature","properties":{"name":"Cambridge Park Villa","Address":"6801 S. 133rd St.","City":"Seattle","Zip":98178,"address":"6801 S. 133rd St., Seattle, WA 98178","units":209,"built":2010},"geometry":{"type":"Point","coordinates":[-122.2476724,47.4836206]}},{"type":"Feature","properties":{"name":"4400 Alaska","Address":"4400 S.W. Alaska St.","City":"Seattle","Zip":981164409,"address":"4400 S.W. Alaska St., Seattle, WA 981164409","units":37,"built":2016},"geometry":{"type":"Point","coordinates":[-122.3884888,47.5612868]}},{"type":"Feature","properties":{"name":"Reverb","Address":"1023 E. Alder St.","City":"Seattle","Zip":981225318,"address":"1023 E. Alder St., Seattle, WA 981225318","units":85,"built":2016},"geometry":{"type":"Point","coordinates":[-122.3183102,47.6041998]}},{"type":"Feature","properties":{"name":"Ambaum Place Apartments","Address":"12300 Ambaum Blvd. S.W.","City":"Seattle","Zip":981462656,"address":"12300 Ambaum Blvd. S.W., Seattle, WA 981462656","units":28,"built":2015},"geometry":{"type":"Point","coordinates":[-122.3494874,47.4929619]}},{"type":"Feature","properties":{"name":"Patrick Place","Address":"4251 Aurora Ave. N.","City":"Seattle","Zip":98103,"address":"4251 Aurora Ave. N., Seattle, WA 98103","units":71,"built":2014},"geometry":{"type":"Point","coordinates":[-122.347739,47.6589882]}},{"type":"Feature","properties":{"name":"Marq West Seattle","Address":"3261 S.W. Avalon Way","City":"Seattle","Zip":98126,"address":"3261 S.W. Avalon Way, Seattle, WA 98126","units":111,"built":2014},"geometry":{"type":"Point","coordinates":[-122.3741873,47.5637974]}},{"type":"Feature","properties":{"name":"Footprint Avalon I","Address":"3266 S.W. Avalon Way","City":"Seattle","Zip":981262607,"address":"3266 S.W. Avalon Way, Seattle, WA 981262607","units":57,"built":2014},"geometry":{"type":"Point","coordinates":[-122.3751806,47.5643432]}},{"type":"Feature","properties":{"name":"Avalon Micro Studios","Address":"3268 S.W. Avalon Way","City":"Seattle","Zip":98126,"address":"3268 S.W. Avalon Way, Seattle, WA 98126","units":56,"built":2016},"geometry":{"type":"Point","coordinates":[-122.37538,47.5643525]}},{"type":"Feature","properties":{"name":"The Residences at 3295","Address":"3295 S.W. Avalon Way","City":"Seattle","Zip":98126,"address":"3295 S.W. Avalon Way, Seattle, WA 98126","units":60,"built":2012},"geometry":{"type":"Point","coordinates":[-122.3757618,47.5638395]}},{"type":"Feature","properties":{"name":"","Address":"3227 Beacon Ave. S.","City":"Seattle","Zip":98144,"address":"3227 Beacon Ave. S., Seattle, WA 98144","units":8,"built":2016},"geometry":{"type":"Point","coordinates":[-122.3092538,47.5742784]}},{"type":"Feature","properties":{"name":"206 Bell","Address":"206 Bell St.","City":"Seattle","Zip":98121,"address":"206 Bell St., Seattle, WA 98121","units":123,"built":2013},"geometry":{"type":"Point","coordinates":[-122.3457131,47.6144277]}},{"type":"Feature","properties":{"name":"Bellevue Terrace","Address":"1623 Bellevue Ave.","City":"Seattle","Zip":98101,"address":"1623 Bellevue Ave., Seattle, WA 98101","units":23,"built":2012},"geometry":{"type":"Point","coordinates":[-122.3271126,47.6159362]}},{"type":"Feature","properties":{"name":"Kulle Urban Living","Address":"1815 Bellevue Ave.","City":"Seattle","Zip":981222031,"address":"1815 Bellevue Ave., Seattle, WA 981222031","units":65,"built":2016},"geometry":{"type":"Point","coordinates":[-122.3270678,47.6181951]}},{"type":"Feature","properties":{"name":"The Local 418","Address":"418 Bellevue Ave. E.","City":"Seattle","Zip":981024707,"address":"418 Bellevue Ave. E., Seattle, WA 981024707","units":48,"built":2013},"geometry":{"type":"Point","coordinates":[-122.3262293,47.6226467]}},{"type":"Feature","properties":{"name":"BelRoy Homes","Address":"711 E. Bellevue Ave. E.","City":"Seattle","Zip":981026324,"address":"711 E. Bellevue Ave. E., Seattle, WA 981026324","units":61,"built":2013},"geometry":{"type":"Point","coordinates":[-122.3270979,47.6255542]}},{"type":"Feature","properties":{"name":"AVA Capitol Hill","Address":"1530 Belmont Ave.","City":"Seattle","Zip":98122,"address":"1530 Belmont Ave., Seattle, WA 98122","units":249,"built":2015},"geometry":{"type":"Point","coordinates":[-122.3241671,47.6148431]}},{"type":"Feature","properties":{"name":"Terravita","Address":"1615 Belmont Ave.","City":"Seattle","Zip":981222313,"address":"1615 Belmont Ave., Seattle, WA 981222313","units":108,"built":2012},"geometry":{"type":"Point","coordinates":[-122.3246469,47.6154098]}},{"type":"Feature","properties":{"name":"Zephyr Apartments","Address":"200 Belmont Ave. E.","City":"Seattle","Zip":981025605,"address":"200 Belmont Ave. E., Seattle, WA 981025605","units":67,"built":2014},"geometry":{"type":"Point","coordinates":[-122.3237114,47.6199501]}},{"type":"Feature","properties":{"name":"Stream Belmont","Address":"500 Belmont Ave. E.","City":"Seattle","Zip":981026141,"address":"500 Belmont Ave. E., Seattle, WA 981026141","units":69,"built":2014},"geometry":{"type":"Point","coordinates":[-122.3237667,47.6233546]}},{"type":"Feature","properties":{"name":"Radius Apartments","Address":"400 Boren Ave. N.","City":"Seattle","Zip":981095337,"address":"400 Boren Ave. N., Seattle, WA 981095337","units":282,"built":2015},"geometry":{"type":"Point","coordinates":[-122.335482,47.6226289]}},{"type":"Feature","properties":{"name":"Fox & Finch","Address":"525 Boren Ave. N.","City":"Seattle","Zip":981095502,"address":"525 Boren Ave. N., Seattle, WA 981095502","units":49,"built":2017},"geometry":{"type":"Point","coordinates":[-122.3359958,47.623719]}},{"type":"Feature","properties":{"name":"JaMar Boylston","Address":"215 Boylston Ave. E.","City":"Seattle","Zip":981025653,"address":"215 Boylston Ave. E., Seattle, WA 981025653","units":17,"built":2017},"geometry":{"type":"Point","coordinates":[-122.3233266,47.6203732]}},{"type":"Feature","properties":{"name":"Barclay Broadway","Address":"412 Broadway","City":"Seattle","Zip":98122,"address":"412 Broadway, Seattle, WA 98122","units":122,"built":2012},"geometry":{"type":"Point","coordinates":[-122.3203541,47.6058408]}},{"type":"Feature","properties":{"name":"Zig","Address":"550 Broadway","City":"Seattle","Zip":981225329,"address":"550 Broadway, Seattle, WA 981225329","units":170,"built":2017},"geometry":{"type":"Point","coordinates":[-122.320316,47.606882]}},{"type":"Feature","properties":{"name":"The Broadway Building","Address":"1620 Broadway","City":"Seattle","Zip":98122,"address":"1620 Broadway, Seattle, WA 98122","units":94,"built":2010},"geometry":{"type":"Point","coordinates":[-122.3204246,47.6160032]}},{"type":"Feature","properties":{"name":"Joule","Address":"523 Broadway E.","City":"Seattle","Zip":98102,"address":"523 Broadway E., Seattle, WA 98102","units":295,"built":2010},"geometry":{"type":"Point","coordinates":[-122.3212159,47.6236481]}},{"type":"Feature","properties":{"name":"The Parsonage","Address":"4138 Brooklyn Ave. N.E.","City":"Seattle","Zip":981056205,"address":"4138 Brooklyn Ave. N.E., Seattle, WA 981056205","units":84,"built":2017},"geometry":{"type":"Point","coordinates":[-122.314016,47.6579725]}},{"type":"Feature","properties":{"name":"Liv Seattle","Address":"4717 Brooklyn Ave. N.E.","City":"Seattle","Zip":981054410,"address":"4717 Brooklyn Ave. N.E., Seattle, WA 981054410","units":56,"built":2015},"geometry":{"type":"Point","coordinates":[-122.3144525,47.6636747]}},{"type":"Feature","properties":{"name":"The Den on Brooklyn","Address":"5043 Brooklyn Ave. N.E.","City":"Seattle","Zip":98105,"address":"5043 Brooklyn Ave. N.E., Seattle, WA 98105","units":50,"built":2014},"geometry":{"type":"Point","coordinates":[-122.3144563,47.6661793]}},{"type":"Feature","properties":{"name":"Springline","Address":"3220 California Ave. S.W.","City":"Seattle","Zip":981163305,"address":"3220 California Ave. S.W., Seattle, WA 981163305","units":136,"built":2016},"geometry":{"type":"Point","coordinates":[-122.386399,47.574889]}},{"type":"Feature","properties":{"name":"4730 California Apartments","Address":"4730 California Ave. S.W.","City":"Seattle","Zip":98116,"address":"4730 California Ave. S.W., Seattle, WA 98116","units":88,"built":2015},"geometry":{"type":"Point","coordinates":[-122.3866063,47.5602534]}},{"type":"Feature","properties":{"name":"The Blake Apartments","Address":"5020 California Ave. S.W.","City":"Seattle","Zip":981361208,"address":"5020 California Ave. S.W., Seattle, WA 981361208","units":103,"built":2014},"geometry":{"type":"Point","coordinates":[-122.3865552,47.5566546]}},{"type":"Feature","properties":{"name":"Fauntleroy Lofts","Address":"5949 California Ave. S.W.","City":"Seattle","Zip":981361611,"address":"5949 California Ave. S.W., Seattle, WA 981361611","units":38,"built":2015},"geometry":{"type":"Point","coordinates":[-122.3875004,47.5489332]}},{"type":"Feature","properties":{"name":"Viridian","Address":"6917 California Ave. S.W.","City":"Seattle","Zip":981361921,"address":"6917 California Ave. S.W., Seattle, WA 981361921","units":30,"built":2015},"geometry":{"type":"Point","coordinates":[-122.387616,47.541726]}},{"type":"Feature","properties":{"name":"Joseph Arnold Lofts","Address":"62 Cedar St.","City":"Seattle","Zip":98121,"address":"62 Cedar St., Seattle, WA 98121","units":131,"built":2013},"geometry":{"type":"Point","coordinates":[-122.3524047,47.6148314]}},{"type":"Feature","properties":{"name":"Dimension","Address":"225 Cedar St.","City":"Seattle","Zip":98121,"address":"225 Cedar St., Seattle, WA 98121","units":297,"built":2014},"geometry":{"type":"Point","coordinates":[-122.3488846,47.6167812]}},{"type":"Feature","properties":{"name":"ALTO Apartments","Address":"311 Cedar St.","City":"Seattle","Zip":98121,"address":"311 Cedar St., Seattle, WA 98121","units":194,"built":2012},"geometry":{"type":"Point","coordinates":[-122.3484074,47.6171452]}},{"type":"Feature","properties":{"name":"","Address":"710 Cherry St.","City":"Seattle","Zip":981041906,"address":"710 Cherry St., Seattle, WA 981041906","units":80,"built":2017},"geometry":{"type":"Point","coordinates":[-122.3273426,47.6056708]}},{"type":"Feature","properties":{"name":"The Douglas","Address":"1223 E. Cherry St.","City":"Seattle","Zip":98122,"address":"1223 E. Cherry St., Seattle, WA 98122","units":81,"built":2011},"geometry":{"type":"Point","coordinates":[-122.3160752,47.6078354]}},{"type":"Feature","properties":{"name":"Footprint Delridge","Address":"4546 Delridge Way S.W.","City":"Seattle","Zip":981061327,"address":"4546 Delridge Way S.W., Seattle, WA 981061327","units":16,"built":2013},"geometry":{"type":"Point","coordinates":[-122.3626378,47.5615659]}},{"type":"Feature","properties":{"name":"Cottage Grove Commons","Address":"5444 Delridge Way S.W.","City":"Seattle","Zip":981061478,"address":"5444 Delridge Way S.W., Seattle, WA 981061478","units":66,"built":2013},"geometry":{"type":"Point","coordinates":[-122.3625568,47.5525262]}},{"type":"Feature","properties":{"name":"Minnie Flats","Address":"101 Denny Way","City":"Seattle","Zip":98109,"address":"101 Denny Way, Seattle, WA 98109","units":83,"built":2016},"geometry":{"type":"Point","coordinates":[-122.3547227,47.618446]}},{"type":"Feature","properties":{"name":"Mod 19","Address":"1814 E. Denny Way","City":"Seattle","Zip":981222812,"address":"1814 E. Denny Way, Seattle, WA 981222812","units":8,"built":2013},"geometry":{"type":"Point","coordinates":[-122.308072,47.61873]}},{"type":"Feature","properties":{"name":"Hamilton Apartments","Address":"2302 E. Denny Way","City":"Seattle","Zip":981222932,"address":"2302 E. Denny Way, Seattle, WA 981222932","units":52,"built":2017},"geometry":{"type":"Point","coordinates":[-122.3022249,47.6192238]}},{"type":"Feature","properties":{"name":"Modera South Lake Union","Address":"435 Dexter Ave. N.","City":"Seattle","Zip":981094704,"address":"435 Dexter Ave. N., Seattle, WA 981094704","units":294,"built":2016},"geometry":{"type":"Point","coordinates":[-122.3424726,47.6229083]}},{"type":"Feature","properties":{"name":"Oakwood Seattle South Lake","Address":"717 Dexter Ave. N.","City":"Seattle","Zip":981094318,"address":"717 Dexter Ave. N., Seattle, WA 981094318","units":100,"built":2013},"geometry":{"type":"Point","coordinates":[-122.342746,47.625988]}},{"type":"Feature","properties":{"name":"True North","Address":"801 Dexter Ave. N.","City":"Seattle","Zip":98109,"address":"801 Dexter Ave. N., Seattle, WA 98109","units":286,"built":2014},"geometry":{"type":"Point","coordinates":[-122.3429019,47.6265649]}},{"type":"Feature","properties":{"name":"Juxt","Address":"810 Dexter Ave. N.","City":"Seattle","Zip":981094319,"address":"810 Dexter Ave. N., Seattle, WA 981094319","units":361,"built":2016},"geometry":{"type":"Point","coordinates":[-122.341933,47.6266892]}},{"type":"Feature","properties":{"name":"Union SLU","Address":"905 Dexter Ave. N.","City":"Seattle","Zip":981093877,"address":"905 Dexter Ave. N., Seattle, WA 981093877","units":284,"built":2013},"geometry":{"type":"Point","coordinates":[-122.3427946,47.6276311]}},{"type":"Feature","properties":{"name":"Dexter Hayes","Address":"1701 Dexter Ave. N.","City":"Seattle","Zip":981093022,"address":"1701 Dexter Ave. N., Seattle, WA 981093022","units":65,"built":2016},"geometry":{"type":"Point","coordinates":[-122.3426436,47.6340822]}},{"type":"Feature","properties":{"name":"East Howe Steps","Address":"1823 Eastlake Ave. E.","City":"Seattle","Zip":98102,"address":"1823 Eastlake Ave. E., Seattle, WA 98102","units":95,"built":2017},"geometry":{"type":"Point","coordinates":[-122.325801,47.6355052]}},{"type":"Feature","properties":{"name":"Eastlake Flats","Address":"2820 Eastlake Ave. E.","City":"Seattle","Zip":981023008,"address":"2820 Eastlake Ave. E., Seattle, WA 981023008","units":110,"built":2015},"geometry":{"type":"Point","coordinates":[-122.3249672,47.6461367]}},{"type":"Feature","properties":{"name":"ArtHouse","Address":"2334 Elliott Ave.","City":"Seattle","Zip":98121,"address":"2334 Elliott Ave., Seattle, WA 98121","units":139,"built":2014},"geometry":{"type":"Point","coordinates":[-122.3489569,47.6127931]}},{"type":"Feature","properties":{"name":"Canvas Apartments","Address":"600 Elliott Ave. W.","City":"Seattle","Zip":98119,"address":"600 Elliott Ave. W., Seattle, WA 98119","units":123,"built":2014},"geometry":{"type":"Point","coordinates":[-122.3655039,47.6250529]}},{"type":"Feature","properties":{"name":"Henry Apartments","Address":"22 Etruria St.","City":"Seattle","Zip":981098600,"address":"22 Etruria St., Seattle, WA 981098600","units":100,"built":2017},"geometry":{"type":"Point","coordinates":[-122.3565944,47.6477858]}},{"type":"Feature","properties":{"name":"Kebero Court","Address":"1105 E. Fir St.","City":"Seattle","Zip":981225415,"address":"1105 E. Fir St., Seattle, WA 981225415","units":103,"built":2015},"geometry":{"type":"Point","coordinates":[-122.317886,47.6022391]}},{"type":"Feature","properties":{"name":"Footprint Franklin","Address":"2371 Franklin Ave. E.","City":"Seattle","Zip":981023314,"address":"2371 Franklin Ave. E., Seattle, WA 981023314","units":35,"built":2014},"geometry":{"type":"Point","coordinates":[-122.3249255,47.6417897]}},{"type":"Feature","properties":{"name":"","Address":"4850 Green Lake Way N.","City":"Seattle","Zip":981036639,"address":"4850 Green Lake Way N., Seattle, WA 981036639","units":7,"built":2010},"geometry":{"type":"Point","coordinates":[-122.3416794,47.6641643]}},{"type":"Feature","properties":{"name":"Vibe Fremont","Address":"3601 Greenwood Ave. N.","City":"Seattle","Zip":981039333,"address":"3601 Greenwood Ave. N., Seattle, WA 981039333","units":63,"built":2015},"geometry":{"type":"Point","coordinates":[-122.355871,47.6528835]}},{"type":"Feature","properties":{"name":"Leilani on Greenwood","Address":"10215 Greenwood Ave. N.","City":"Seattle","Zip":981339362,"address":"10215 Greenwood Ave. N., Seattle, WA 981339362","units":328,"built":2013},"geometry":{"type":"Point","coordinates":[-122.3558363,47.7033895]}},{"type":"Feature","properties":{"name":"","Address":"10316 Greenwood Ave. N.","City":"Seattle","Zip":98133,"address":"10316 Greenwood Ave. N., Seattle, WA 98133","units":10,"built":2010},"geometry":{"type":"Point","coordinates":[-122.3551468,47.7042227]}},{"type":"Feature","properties":{"name":"Greenwood Place Apartments","Address":"14307 Greenwood Ave. N.","City":"Seattle","Zip":98133,"address":"14307 Greenwood Ave. N., Seattle, WA 98133","units":45,"built":2015},"geometry":{"type":"Point","coordinates":[-122.3560196,47.7325201]}},{"type":"Feature","properties":{"name":"","Address":"2371-2383 Harbor Ave. S.W.","City":"Seattle","Zip":981262126,"address":"2371-2383 Harbor Ave. S.W., Seattle, WA 981262126","units":7,"built":2011},"geometry":{"type":"Point","coordinates":[-122.3735931,47.5819188]}},{"type":"Feature","properties":{"name":"Stack House","Address":"1280 Harrison St.","City":"Seattle","Zip":98109,"address":"1280 Harrison St., Seattle, WA 98109","units":278,"built":2013},"geometry":{"type":"Point","coordinates":[-122.3307806,47.6223013]}},{"type":"Feature","properties":{"name":"H2O Apartments","Address":"201 W. Harrison St.","City":"Seattle","Zip":981194107,"address":"201 W. Harrison St., Seattle, WA 981194107","units":45,"built":2013},"geometry":{"type":"Point","coordinates":[-122.3597215,47.6219547]}},{"type":"Feature","properties":{"name":"Lexicon","Address":"120 Harvard Ave. E.","City":"Seattle","Zip":98102,"address":"120 Harvard Ave. E., Seattle, WA 98102","units":38,"built":2014},"geometry":{"type":"Point","coordinates":[-122.3218412,47.6193598]}},{"type":"Feature","properties":{"name":"Rubix Apartments","Address":"515 Harvard Ave. E.","City":"Seattle","Zip":981024915,"address":"515 Harvard Ave. E., Seattle, WA 981024915","units":73,"built":2015},"geometry":{"type":"Point","coordinates":[-122.3222684,47.6236937]}},{"type":"Feature","properties":{"name":"A.W. Larson Building","Address":"3206 Harvard Ave. E.","City":"Seattle","Zip":981023836,"address":"3206 Harvard Ave. E., Seattle, WA 981023836","units":50,"built":2016},"geometry":{"type":"Point","coordinates":[-122.3218009,47.650259]}},{"type":"Feature","properties":{"name":"999 Hiawatha Apartments","Address":"999 Hiawatha S.","City":"Seattle","Zip":981442825,"address":"999 Hiawatha S., Seattle, WA 981442825","units":100,"built":2013},"geometry":{"type":"Point","coordinates":[-122.308494,47.593138]}},{"type":"Feature","properties":{"name":"Parla","Address":"9176 Holman Rd. N.W.","City":"Seattle","Zip":98117,"address":"9176 Holman Rd. N.W., Seattle, WA 98117","units":131,"built":2017},"geometry":{"type":"Point","coordinates":[-122.3734147,47.6957263]}},{"type":"Feature","properties":{"name":"Arbol Lofts","Address":"611 E. Howell St.","City":"Seattle","Zip":981222215,"address":"611 E. Howell St., Seattle, WA 981222215","units":20,"built":2016},"geometry":{"type":"Point","coordinates":[-122.3238994,47.6175686]}},{"type":"Feature","properties":{"name":"Vitality on Howell","Address":"1420 E. Howell St.","City":"Seattle","Zip":981222633,"address":"1420 E. Howell St., Seattle, WA 981222633","units":57,"built":2017},"geometry":{"type":"Point","coordinates":[-122.313247,47.6178219]}},{"type":"Feature","properties":{"name":"Greenhouse","Address":"3701 S. Hudson St.","City":"Seattle","Zip":98118,"address":"3701 S. Hudson St., Seattle, WA 98118","units":124,"built":2012},"geometry":{"type":"Point","coordinates":[-122.2857203,47.5567532]}},{"type":"Feature","properties":{"name":"The Reserve at SeaTac","Address":"19707 International Blvd.","City":"Seattle","Zip":981885463,"address":"19707 International Blvd., Seattle, WA 981885463","units":289,"built":2016},"geometry":{"type":"Point","coordinates":[-122.2962786,47.4251486]}},{"type":"Feature","properties":{"name":"Icon Apartments","Address":"400 S. Jackson St.","City":"Seattle","Zip":981044422,"address":"400 S. Jackson St., Seattle, WA 981044422","units":120,"built":2016},"geometry":{"type":"Point","coordinates":[-122.3284603,47.5994805]}},{"type":"Feature","properties":{"name":"Ernestine Anderson Place","Address":"2010 S. Jackson St.","City":"Seattle","Zip":981442271,"address":"2010 S. Jackson St., Seattle, WA 981442271","units":60,"built":2013},"geometry":{"type":"Point","coordinates":[-122.3055531,47.5994501]}},{"type":"Feature","properties":{"name":"The Jefferson","Address":"1206 E. Jefferson St.","City":"Seattle","Zip":981225595,"address":"1206 E. Jefferson St., Seattle, WA 981225595","units":40,"built":2012},"geometry":{"type":"Point","coordinates":[-122.3163856,47.606388]}},{"type":"Feature","properties":{"name":"Craft Apartments","Address":"1315 E. Jefferson St.","City":"Seattle","Zip":981225537,"address":"1315 E. Jefferson St., Seattle, WA 981225537","units":32,"built":2016},"geometry":{"type":"Point","coordinates":[-122.3146521,47.6060862]}},{"type":"Feature","properties":{"name":"101 John Apartments","Address":"101 John St.","City":"Seattle","Zip":981094918,"address":"101 John St., Seattle, WA 981094918","units":20,"built":2016},"geometry":{"type":"Point","coordinates":[-122.3552527,47.6196267]}},{"type":"Feature","properties":{"name":"Elliott Bayview Apartments","Address":"151 John St.","City":"Seattle","Zip":98109,"address":"151 John St., Seattle, WA 98109","units":41,"built":2012},"geometry":{"type":"Point","coordinates":[-122.3537976,47.6195944]}},{"type":"Feature","properties":{"name":"Compass on Dexter","Address":"756 John St.","City":"Seattle","Zip":981095112,"address":"756 John St., Seattle, WA 981095112","units":72,"built":2015},"geometry":{"type":"Point","coordinates":[-122.3420291,47.620076]}},{"type":"Feature","properties":{"name":"Boxcar Apartments","Address":"975 John St.","City":"Seattle","Zip":981095205,"address":"975 John St., Seattle, WA 981095205","units":145,"built":2013},"geometry":{"type":"Point","coordinates":[-122.3375689,47.6194455]}},{"type":"Feature","properties":{"name":"LIV at East John","Address":"1113 E. John St.","City":"Seattle","Zip":981025811,"address":"1113 E. John St., Seattle, WA 981025811","units":48,"built":2015},"geometry":{"type":"Point","coordinates":[-122.3175077,47.6197489]}},{"type":"Feature","properties":{"name":"Anhalt Apartments","Address":"1600 E. John St.","City":"Seattle","Zip":981125222,"address":"1600 E. John St., Seattle, WA 981125222","units":39,"built":2015},"geometry":{"type":"Point","coordinates":[-122.3110087,47.6198579]}},{"type":"Feature","properties":{"name":"Victoria Park","Address":"13716 Lake City Way N.E.","City":"Seattle","Zip":98125,"address":"13716 Lake City Way N.E., Seattle, WA 98125","units":152,"built":2011},"geometry":{"type":"Point","coordinates":[-122.2919145,47.7285755]}},{"type":"Feature","properties":{"name":"The Savoy at Lake City","Address":"13730 Lake City Way N.E.","City":"Seattle","Zip":981253692,"address":"13730 Lake City Way N.E., Seattle, WA 981253692","units":76,"built":2017},"geometry":{"type":"Point","coordinates":[-122.2918596,47.7295286]}},{"type":"Feature","properties":{"name":"Array Apartments","Address":"14027 Lake City Way N.E.","City":"Seattle","Zip":981253617,"address":"14027 Lake City Way N.E., Seattle, WA 981253617","units":319,"built":2014},"geometry":{"type":"Point","coordinates":[-122.2931374,47.7311056]}},{"type":"Feature","properties":{"name":"","Address":"3633 Linden Ave. N.","City":"Seattle","Zip":981038704,"address":"3633 Linden Ave. N., Seattle, WA 981038704","units":35,"built":2016},"geometry":{"type":"Point","coordinates":[-122.3488765,47.6521984]}},{"type":"Feature","properties":{"name":"Bitter Lake Seattle","Address":"14002 Linden Ave. N.","City":"Seattle","Zip":981336948,"address":"14002 Linden Ave. N., Seattle, WA 981336948","units":178,"built":2012},"geometry":{"type":"Point","coordinates":[-122.3471201,47.7307587]}},{"type":"Feature","properties":{"name":"Citizen of the Pike Pine","Address":"1222 E. Madison St.","City":"Seattle","Zip":98122,"address":"1222 E. Madison St., Seattle, WA 98122","units":107,"built":2012},"geometry":{"type":"Point","coordinates":[-122.3157906,47.613467]}},{"type":"Feature","properties":{"name":"Broadcast Apartments","Address":"1420 E. Madison St.","City":"Seattle","Zip":981223935,"address":"1420 E. Madison St., Seattle, WA 981223935","units":74,"built":2017},"geometry":{"type":"Point","coordinates":[-122.313301,47.614543]}},{"type":"Feature","properties":{"name":"Mad Flats","Address":"1523 E. Madison St.","City":"Seattle","Zip":98122,"address":"1523 E. Madison St., Seattle, WA 98122","units":57,"built":2016},"geometry":{"type":"Point","coordinates":[-122.3116802,47.6147263]}},{"type":"Feature","properties":{"name":"Lawrence Lofts","Address":"1818 E. Madison St.","City":"Seattle","Zip":981222840,"address":"1818 E. Madison St., Seattle, WA 981222840","units":130,"built":2012},"geometry":{"type":"Point","coordinates":[-122.3079183,47.6169124]}},{"type":"Feature","properties":{"name":"TWENTY-20 MAD","Address":"2020 E. Madison St.","City":"Seattle","Zip":981222960,"address":"2020 E. Madison St., Seattle, WA 981222960","units":157,"built":2017},"geometry":{"type":"Point","coordinates":[-122.3050866,47.6180652]}},{"type":"Feature","properties":{"name":"80 Main","Address":"80 S. Main St.","City":"Seattle","Zip":981042514,"address":"80 S. Main St., Seattle, WA 981042514","units":45,"built":2016},"geometry":{"type":"Point","coordinates":[-122.3352038,47.6003259]}},{"type":"Feature","properties":{"name":"Hirabayashi Place","Address":"424 S. Main St.","City":"Seattle","Zip":98104,"address":"424 S. Main St., Seattle, WA 98104","units":96,"built":2016},"geometry":{"type":"Point","coordinates":[-122.328633,47.6003017]}},{"type":"Feature","properties":{"name":"","Address":"12910 E. Marginal Way S.","City":"Seattle","Zip":98168,"address":"12910 E. Marginal Way S., Seattle, WA 98168","units":7,"built":2011},"geometry":{"type":"Point","coordinates":[-122.2832616,47.4876344]}},{"type":"Feature","properties":{"name":"Broadstone Koi","Address":"1139 N.W. Market St.","City":"Seattle","Zip":98107,"address":"1139 N.W. Market St., Seattle, WA 98107","units":166,"built":2013},"geometry":{"type":"Point","coordinates":[-122.3720373,47.6684073]}},{"type":"Feature","properties":{"name":"AMLI Mark24","Address":"2428 N.W. Market St.","City":"Seattle","Zip":98107,"address":"2428 N.W. Market St., Seattle, WA 98107","units":304,"built":2014},"geometry":{"type":"Point","coordinates":[-122.3885517,47.6690866]}},{"type":"Feature","properties":{"name":"Columbia City Station Apartments","Address":"4484 Martin Luther King Jr. Way S.","City":"Seattle","Zip":981082423,"address":"4484 Martin Luther King Jr. Way S., Seattle, WA 981082423","units":49,"built":2014},"geometry":{"type":"Point","coordinates":[-122.2944801,47.563325]}},{"type":"Feature","properties":{"name":"Rainier Vista","Address":"4570 Martin Luther King Jr. Way S.","City":"Seattle","Zip":981082151,"address":"4570 Martin Luther King Jr. Way S., Seattle, WA 981082151","units":385,"built":2011},"geometry":{"type":"Point","coordinates":[-122.2936932,47.5619187]}},{"type":"Feature","properties":{"name":"Mercy Othello Plaza","Address":"6940 Martin Luther King Jr. Way S.","City":"Seattle","Zip":981183518,"address":"6940 Martin Luther King Jr. Way S., Seattle, WA 981183518","units":108,"built":2017},"geometry":{"type":"Point","coordinates":[-122.2820059,47.5396448]}},{"type":"Feature","properties":{"name":"The Denning","Address":"1636 S. Mcclellan St.","City":"Seattle","Zip":98144,"address":"1636 S. Mcclellan St., Seattle, WA 98144","units":46,"built":2014},"geometry":{"type":"Point","coordinates":[-122.3111112,47.5788464]}},{"type":"Feature","properties":{"name":"Rivet","Address":"1201 Mercer St.","City":"Seattle","Zip":981095512,"address":"1201 Mercer St., Seattle, WA 981095512","units":131,"built":2014},"geometry":{"type":"Point","coordinates":[-122.3326679,47.6239366]}},{"type":"Feature","properties":{"name":"Uptown 11","Address":"11 W. Mercer St.","City":"Seattle","Zip":981195909,"address":"11 W. Mercer St., Seattle, WA 981195909","units":34,"built":2016},"geometry":{"type":"Point","coordinates":[-122.3570301,47.6243332]}},{"type":"Feature","properties":{"name":"Footprint Wallingford","Address":"4516 Meridian Ave. N.","City":"Seattle","Zip":981036934,"address":"4516 Meridian Ave. N., Seattle, WA 981036934","units":40,"built":2013},"geometry":{"type":"Point","coordinates":[-122.3333712,47.6620344]}},{"type":"Feature","properties":{"name":"LIV Wallingford","Address":"1240 N. Midvale Pl.","City":"Seattle","Zip":98103,"address":"1240 N. Midvale Pl., Seattle, WA 98103","units":30,"built":2017},"geometry":{"type":"Point","coordinates":[-122.3433647,47.6617115]}},{"type":"Feature","properties":{"name":"Coppins Well","Address":"1000 Minor Ave.","City":"Seattle","Zip":98104,"address":"1000 Minor Ave., Seattle, WA 98104","units":236,"built":2012},"geometry":{"type":"Point","coordinates":[-122.3240423,47.6101617]}},{"type":"Feature","properties":{"name":"Pine+Minor","Address":"1551 Minor Ave.","City":"Seattle","Zip":981012968,"address":"1551 Minor Ave., Seattle, WA 981012968","units":120,"built":2013},"geometry":{"type":"Point","coordinates":[-122.3285916,47.6145878]}},{"type":"Feature","properties":{"name":"Cascade Apartments","Address":"221 Minor Ave. N.","City":"Seattle","Zip":981095435,"address":"221 Minor Ave. N., Seattle, WA 981095435","units":256,"built":2017},"geometry":{"type":"Point","coordinates":[-122.3333519,47.6204303]}},{"type":"Feature","properties":{"name":"West Newton Flats","Address":"2301 W. Newton St.","City":"Seattle","Zip":981994114,"address":"2301 W. Newton St., Seattle, WA 981994114","units":17,"built":2012},"geometry":{"type":"Point","coordinates":[-122.3864588,47.6368129]}},{"type":"Feature","properties":{"name":"The Enclave","Address":"525 N.E. Northgate Way","City":"Seattle","Zip":98125,"address":"525 N.E. Northgate Way, Seattle, WA 98125","units":428,"built":2014},"geometry":{"type":"Point","coordinates":[-122.3215847,47.70809]}},{"type":"Feature","properties":{"name":"The Nolo","Address":"520 S. Occidental Ave.","City":"Seattle","Zip":98104,"address":"520 S. Occidental Ave., Seattle, WA 98104","units":158,"built":2013},"geometry":{"type":"Point","coordinates":[-122.3332737,47.5979878]}},{"type":"Feature","properties":{"name":"NA-MU Lofts","Address":"2202 E. Olive St.","City":"Seattle","Zip":98122,"address":"2202 E. Olive St., Seattle, WA 98122","units":36,"built":2015},"geometry":{"type":"Point","coordinates":[-122.303372,47.617273]}},{"type":"Feature","properties":{"name":"","Address":"321 W. Olympic Pl.","City":"Seattle","Zip":981194724,"address":"321 W. Olympic Pl., Seattle, WA 981194724","units":6,"built":2016},"geometry":{"type":"Point","coordinates":[-122.361668,47.6265249]}},{"type":"Feature","properties":{"name":"Olympic View Townhomes","Address":"327 W. Olympic Pl.","City":"Seattle","Zip":981193719,"address":"327 W. Olympic Pl., Seattle, WA 981193719","units":6,"built":2016},"geometry":{"type":"Point","coordinates":[-122.3618748,47.6265271]}},{"type":"Feature","properties":{"name":"The Station at Othello Park","Address":"4219 S. Othello St.","City":"Seattle","Zip":98118,"address":"4219 S. Othello St., Seattle, WA 98118","units":351,"built":2011},"geometry":{"type":"Point","coordinates":[-122.2804522,47.5365628]}},{"type":"Feature","properties":{"name":"Viewpoint Apartment Homes","Address":"21428 Pacific Highway S.","City":"Seattle","Zip":98198,"address":"21428 Pacific Highway S., Seattle, WA 98198","units":90,"built":2011},"geometry":{"type":"Point","coordinates":[-122.2977876,47.4090859]}},{"type":"Feature","properties":{"name":"Phinney Ridge","Address":"5555-5557 Phinney Ave. N.","City":"Seattle","Zip":981035853,"address":"5555-5557 Phinney Ave. N., Seattle, WA 981035853","units":8,"built":2016},"geometry":{"type":"Point","coordinates":[-122.3543884,47.6693171]}},{"type":"Feature","properties":{"name":"Cove","Address":"601 E. Pike St.","City":"Seattle","Zip":981223717,"address":"601 E. Pike St., Seattle, WA 981223717","units":60,"built":2017},"geometry":{"type":"Point","coordinates":[-122.3241532,47.6139387]}},{"type":"Feature","properties":{"name":"Pike Motorworks","Address":"714 E. Pike St.","City":"Seattle","Zip":981223720,"address":"714 E. Pike St., Seattle, WA 981223720","units":243,"built":2015},"geometry":{"type":"Point","coordinates":[-122.3227114,47.6144161]}},{"type":"Feature","properties":{"name":"Beryl","Address":"1200 E. Pike St.","City":"Seattle","Zip":981223918,"address":"1200 E. Pike St., Seattle, WA 981223918","units":88,"built":2015},"geometry":{"type":"Point","coordinates":[-122.3164405,47.6143339]}},{"type":"Feature","properties":{"name":"Excelsior","Address":"301 E. Pine St.","City":"Seattle","Zip":981222028,"address":"301 E. Pine St., Seattle, WA 981222028","units":203,"built":2017},"geometry":{"type":"Point","coordinates":[-122.327581,47.61506]}},{"type":"Feature","properties":{"name":"Three20 Apartments","Address":"320 E. Pine St.","City":"Seattle","Zip":98122,"address":"320 E. Pine St., Seattle, WA 98122","units":134,"built":2014},"geometry":{"type":"Point","coordinates":[-122.3271423,47.6155969]}},{"type":"Feature","properties":{"name":"Cue","Address":"721 E. Pine St.","City":"Seattle","Zip":98122,"address":"721 E. Pine St., Seattle, WA 98122","units":90,"built":2015},"geometry":{"type":"Point","coordinates":[-122.3223376,47.6150321]}},{"type":"Feature","properties":{"name":"Sunset Electric","Address":"1111 E. Pine St.","City":"Seattle","Zip":98122,"address":"1111 E. Pine St., Seattle, WA 98122","units":92,"built":2014},"geometry":{"type":"Point","coordinates":[-122.3178023,47.6151577]}},{"type":"Feature","properties":{"name":"Pat Williams Apartments","Address":"219-223 Pontius Ave. N.","City":"Seattle","Zip":98109,"address":"219-223 Pontius Ave. N., Seattle, WA 98109","units":81,"built":2012},"geometry":{"type":"Point","coordinates":[-122.3318992,47.6203621]}},{"type":"Feature","properties":{"name":"306 Queen Anne Apartments","Address":"306 Queen Anne Ave. N.","City":"Seattle","Zip":98109,"address":"306 Queen Anne Ave. N., Seattle, WA 98109","units":53,"built":2014},"geometry":{"type":"Point","coordinates":[-122.3562295,47.6212993]}},{"type":"Feature","properties":{"name":"View 420","Address":"420 Queen Anne Ave. N.","City":"Seattle","Zip":98109,"address":"420 Queen Anne Ave. N., Seattle, WA 98109","units":23,"built":2011},"geometry":{"type":"Point","coordinates":[-122.3563504,47.6227751]}},{"type":"Feature","properties":{"name":"Queen Anne Towne","Address":"1900 Queen Anne Ave. N.","City":"Seattle","Zip":981092548,"address":"1900 Queen Anne Ave. N., Seattle, WA 981092548","units":107,"built":2014},"geometry":{"type":"Point","coordinates":[-122.356558,47.636477]}},{"type":"Feature","properties":{"name":"7 Hills Apartments","Address":"1909-1929 Queen Anne Ave. N.","City":"Seattle","Zip":98109,"address":"1909-1929 Queen Anne Ave. N., Seattle, WA 98109","units":57,"built":2012},"geometry":{"type":"Point","coordinates":[-122.3573717,47.6368275]}},{"type":"Feature","properties":{"name":"Mt. Baker Lofts","Address":"2915 Rainier Ave. S.","City":"Seattle","Zip":981446011,"address":"2915 Rainier Ave. S., Seattle, WA 981446011","units":59,"built":2014},"geometry":{"type":"Point","coordinates":[-122.2975861,47.5772013]}},{"type":"Feature","properties":{"name":"The Claremont","Address":"3333 Rainier Ave. S.","City":"Seattle","Zip":981446816,"address":"3333 Rainier Ave. S., Seattle, WA 981446816","units":68,"built":2011},"geometry":{"type":"Point","coordinates":[-122.2945271,47.5730926]}},{"type":"Feature","properties":{"name":"The Angeline","Address":"4801 Rainier Ave. S.","City":"Seattle","Zip":98118,"address":"4801 Rainier Ave. S., Seattle, WA 98118","units":193,"built":2015},"geometry":{"type":"Point","coordinates":[-122.2868601,47.5592356]}},{"type":"Feature","properties":{"name":"Emerald City Commons","Address":"7700-7722 Rainier Ave. S.","City":"Seattle","Zip":981184139,"address":"7700-7722 Rainier Ave. S., Seattle, WA 981184139","units":61,"built":2013},"geometry":{"type":"Point","coordinates":[-122.2696692,47.5329665]}},{"type":"Feature","properties":{"name":"Rose Street Apartments","Address":"8160 Rainier Ave. S.","City":"Seattle","Zip":98118,"address":"8160 Rainier Ave. S., Seattle, WA 98118","units":71,"built":2011},"geometry":{"type":"Point","coordinates":[-122.2696461,47.5297865]}},{"type":"Feature","properties":{"name":"Helene Apartments","Address":"414 N.E. Ravenna Blvd.","City":"Seattle","Zip":981156429,"address":"414 N.E. Ravenna Blvd., Seattle, WA 981156429","units":62,"built":2016},"geometry":{"type":"Point","coordinates":[-122.324003,47.678596]}},{"type":"Feature","properties":{"name":"Expo","Address":"118 Republican St.","City":"Seattle","Zip":98109,"address":"118 Republican St., Seattle, WA 98109","units":275,"built":2013},"geometry":{"type":"Point","coordinates":[-122.3547298,47.6233983]}},{"type":"Feature","properties":{"name":"AMLI South Lake Union","Address":"1260 Republican St.","City":"Seattle","Zip":98109,"address":"1260 Republican St., Seattle, WA 98109","units":293,"built":2014},"geometry":{"type":"Point","coordinates":[-122.331087,47.6233941]}},{"type":"Feature","properties":{"name":"Yardhouse","Address":"1406 E. Republican St.","City":"Seattle","Zip":981124562,"address":"1406 E. Republican St., Seattle, WA 981124562","units":35,"built":2014},"geometry":{"type":"Point","coordinates":[-122.314332,47.623329]}},{"type":"Feature","properties":{"name":"Prexy","Address":"4737 Roosevelt Way N.E.","City":"Seattle","Zip":981054723,"address":"4737 Roosevelt Way N.E., Seattle, WA 981054723","units":66,"built":2016},"geometry":{"type":"Point","coordinates":[-122.3177095,47.6642274]}},{"type":"Feature","properties":{"name":"Roosevelt & 50th","Address":"4750 Roosevelt Way N.E.","City":"Seattle","Zip":981054724,"address":"4750 Roosevelt Way N.E., Seattle, WA 981054724","units":60,"built":2017},"geometry":{"type":"Point","coordinates":[-122.3170948,47.6646349]}},{"type":"Feature","properties":{"name":"","Address":"5019 Roosevelt Way N.E.","City":"Seattle","Zip":981053610,"address":"5019 Roosevelt Way N.E., Seattle, WA 981053610","units":49,"built":2016},"geometry":{"type":"Point","coordinates":[-122.3178316,47.665588]}},{"type":"Feature","properties":{"name":"Kavela","Address":"6521 Roosevelt Way N.E.","City":"Seattle","Zip":98115,"address":"6521 Roosevelt Way N.E., Seattle, WA 98115","units":64,"built":2013},"geometry":{"type":"Point","coordinates":[-122.317732,47.676333]}},{"type":"Feature","properties":{"name":"Medora Roosevelt","Address":"6810 Roosevelt Way N.E.","City":"Seattle","Zip":981156633,"address":"6810 Roosevelt Way N.E., Seattle, WA 981156633","units":79,"built":2017},"geometry":{"type":"Point","coordinates":[-122.3173777,47.6783507]}},{"type":"Feature","properties":{"name":"Odin Apartments","Address":"5398 Russell Ave. N.W.","City":"Seattle","Zip":981073925,"address":"5398 Russell Ave. N.W., Seattle, WA 981073925","units":301,"built":2015},"geometry":{"type":"Point","coordinates":[-122.3814592,47.6678067]}},{"type":"Feature","properties":{"name":"Cielo Apartments","Address":"800 Seneca St.","City":"Seattle","Zip":98101,"address":"800 Seneca St., Seattle, WA 98101","units":335,"built":2015},"geometry":{"type":"Point","coordinates":[-122.3295175,47.6097217]}},{"type":"Feature","properties":{"name":"Luma","Address":"1321 Seneca St.","City":"Seattle","Zip":981012828,"address":"1321 Seneca St., Seattle, WA 981012828","units":168,"built":2016},"geometry":{"type":"Point","coordinates":[-122.3231605,47.6118785]}},{"type":"Feature","properties":{"name":"The Wave at Staduim Place","Address":"521 Stadium Pl. S.","City":"Seattle","Zip":981042336,"address":"521 Stadium Pl. S., Seattle, WA 981042336","units":333,"built":2014},"geometry":{"type":"Point","coordinates":[-122.3318598,47.5976726]}},{"type":"Feature","properties":{"name":"Dekko Place","Address":"901 Stewart St.","City":"Seattle","Zip":981011417,"address":"901 Stewart St., Seattle, WA 981011417","units":50,"built":2011},"geometry":{"type":"Point","coordinates":[-122.3340525,47.6156231]}},{"type":"Feature","properties":{"name":"The Hayes on Stone Way","Address":"3627 Stone Way N.","City":"Seattle","Zip":981038003,"address":"3627 Stone Way N., Seattle, WA 981038003","units":124,"built":2017},"geometry":{"type":"Point","coordinates":[-122.3431451,47.6514241]}},{"type":"Feature","properties":{"name":"Ray Apartments","Address":"3636 Stone Way N.","City":"Seattle","Zip":981038004,"address":"3636 Stone Way N., Seattle, WA 981038004","units":137,"built":2015},"geometry":{"type":"Point","coordinates":[-122.3422212,47.651658]}},{"type":"Feature","properties":{"name":"Bowman Stoneway","Address":"3801 Stone Way N.","City":"Seattle","Zip":981038005,"address":"3801 Stone Way N., Seattle, WA 981038005","units":278,"built":2016},"geometry":{"type":"Point","coordinates":[-122.3429044,47.652925]}},{"type":"Feature","properties":{"name":"Prescott Wallingford Apartments","Address":"3920 Stone Way N.","City":"Seattle","Zip":98103,"address":"3920 Stone Way N., Seattle, WA 98103","units":154,"built":2012},"geometry":{"type":"Point","coordinates":[-122.342066,47.654794]}},{"type":"Feature","properties":{"name":"Wally Apartments","Address":"4111 Stone Way N.","City":"Seattle","Zip":981038013,"address":"4111 Stone Way N., Seattle, WA 981038013","units":27,"built":2013},"geometry":{"type":"Point","coordinates":[-122.3427514,47.6570505]}},{"type":"Feature","properties":{"name":"The Noble","Address":"4301 Stone Way N.","City":"Seattle","Zip":981037420,"address":"4301 Stone Way N., Seattle, WA 981037420","units":93,"built":2013},"geometry":{"type":"Point","coordinates":[-122.3425487,47.6594876]}},{"type":"Feature","properties":{"name":"Dunn Motors Apartments","Address":"1430 Summit Ave.","City":"Seattle","Zip":98122,"address":"1430 Summit Ave., Seattle, WA 98122","units":88,"built":2016},"geometry":{"type":"Point","coordinates":[-122.3251728,47.6138224]}},{"type":"Feature","properties":{"name":"The Local 422","Address":"422 Summit Ave. E.","City":"Seattle","Zip":98102,"address":"422 Summit Ave. E., Seattle, WA 98102","units":48,"built":2015},"geometry":{"type":"Point","coordinates":[-122.3249207,47.6226537]}},{"type":"Feature","properties":{"name":"Taylor 28","Address":"100 Taylor Ave. N.","City":"Seattle","Zip":98109,"address":"100 Taylor Ave. N., Seattle, WA 98109","units":197,"built":2010},"geometry":{"type":"Point","coordinates":[-122.3459112,47.619149]}},{"type":"Feature","properties":{"name":"The Century","Address":"101 Taylor Ave. N.","City":"Seattle","Zip":98109,"address":"101 Taylor Ave. N., Seattle, WA 98109","units":258,"built":2014},"geometry":{"type":"Point","coordinates":[-122.3467203,47.6189966]}},{"type":"Feature","properties":{"name":"The Westside","Address":"801 E. Thomas St.","City":"Seattle","Zip":981025478,"address":"801 E. Thomas St., Seattle, WA 981025478","units":45,"built":2015},"geometry":{"type":"Point","coordinates":[-122.3218034,47.6209225]}},{"type":"Feature","properties":{"name":"Hydro Flats","Address":"1966 Thorndyke Ave. W.","City":"Seattle","Zip":981994155,"address":"1966 Thorndyke Ave. W., Seattle, WA 981994155","units":10,"built":2014},"geometry":{"type":"Point","coordinates":[-122.388771,47.636753]}},{"type":"Feature","properties":{"name":"Evolve Apartments","Address":"954 E. Union St.","City":"Seattle","Zip":98122,"address":"954 E. Union St., Seattle, WA 98122","units":79,"built":2014},"geometry":{"type":"Point","coordinates":[-122.3198411,47.6132416]}},{"type":"Feature","properties":{"name":"VIVA","Address":"1111 E. Union St.","City":"Seattle","Zip":981223923,"address":"1111 E. Union St., Seattle, WA 981223923","units":105,"built":2014},"geometry":{"type":"Point","coordinates":[-122.317689,47.6127389]}},{"type":"Feature","properties":{"name":"The Central","Address":"2203 E. Union St.","City":"Seattle","Zip":98122,"address":"2203 E. Union St., Seattle, WA 98122","units":92,"built":2016},"geometry":{"type":"Point","coordinates":[-122.3031977,47.6126974]}},{"type":"Feature","properties":{"name":"Stencil","Address":"2407 E. Union St.","City":"Seattle","Zip":981223045,"address":"2407 E. Union St., Seattle, WA 981223045","units":39,"built":2016},"geometry":{"type":"Point","coordinates":[-122.3010906,47.6126922]}},{"type":"Feature","properties":{"name":"Cyrene","Address":"50 University St.","City":"Seattle","Zip":981012941,"address":"50 University St., Seattle, WA 981012941","units":169,"built":2017},"geometry":{"type":"Point","coordinates":[-122.3398844,47.6064484]}},{"type":"Feature","properties":{"name":"Muriel's Landing","Address":"5240 University Way N.E.","City":"Seattle","Zip":98105,"address":"5240 University Way N.E., Seattle, WA 98105","units":100,"built":2012},"geometry":{"type":"Point","coordinates":[-122.3127521,47.6678857]}},{"type":"Feature","properties":{"name":"Walton Lofts","Address":"75 Vine St.","City":"Seattle","Zip":981211373,"address":"75 Vine St., Seattle, WA 981211373","units":136,"built":2015},"geometry":{"type":"Point","coordinates":[-122.3505536,47.6142457]}},{"type":"Feature","properties":{"name":"Broadstone Clarendon","Address":"105 Warren Ave. N.","City":"Seattle","Zip":981094928,"address":"105 Warren Ave. N., Seattle, WA 981094928","units":82,"built":2017},"geometry":{"type":"Point","coordinates":[-122.3541594,47.6186456]}},{"type":"Feature","properties":{"name":"The Post","Address":"888 Western Ave.","City":"Seattle","Zip":98104,"address":"888 Western Ave., Seattle, WA 98104","units":208,"built":2012},"geometry":{"type":"Point","coordinates":[-122.3360601,47.603235]}},{"type":"Feature","properties":{"name":"MarketFront","Address":"1901 Western Ave.","City":"Seattle","Zip":98101,"address":"1901 Western Ave., Seattle, WA 98101","units":40,"built":2017},"geometry":{"type":"Point","coordinates":[-122.3419665,47.6091702]}},{"type":"Feature","properties":{"name":"Westlake Steps & Marina SLU","Address":"1207 Westlake Ave. N.","City":"Seattle","Zip":981093531,"address":"1207 Westlake Ave. N., Seattle, WA 981093531","units":317,"built":2017},"geometry":{"type":"Point","coordinates":[-122.341636,47.629947]}},{"type":"Feature","properties":{"name":"One Lake Front","Address":"1287 Westlake Ave. N.","City":"Seattle","Zip":98109,"address":"1287 Westlake Ave. N., Seattle, WA 98109","units":317,"built":2017},"geometry":{"type":"Point","coordinates":[-122.3415165,47.6321145]}},{"type":"Feature","properties":{"name":"The Collage Apartments","Address":"3606 Woodland Park Ave. N.","City":"Seattle","Zip":98103,"address":"3606 Woodland Park Ave. N., Seattle, WA 98103","units":52,"built":2013},"geometry":{"type":"Point","coordinates":[-122.3436136,47.6509021]}},{"type":"Feature","properties":{"name":"Velo Fremont","Address":"3635 Woodland Park Ave. N.","City":"Seattle","Zip":981037905,"address":"3635 Woodland Park Ave. N., Seattle, WA 981037905","units":171,"built":2014},"geometry":{"type":"Point","coordinates":[-122.3444048,47.6519222]}},{"type":"Feature","properties":{"name":"Art Stable","Address":"516 Yale Ave. N.","City":"Seattle","Zip":98109,"address":"516 Yale Ave. N., Seattle, WA 98109","units":5,"built":2010},"geometry":{"type":"Point","coordinates":[-122.330087,47.6237009]}},{"type":"Feature","properties":{"name":"Raven Terrace","Address":"820 Yesler Way","City":"Seattle","Zip":98104,"address":"820 Yesler Way, Seattle, WA 98104","units":83,"built":2015},"geometry":{"type":"Point","coordinates":[-122.3219913,47.6019113]}},{"type":"Feature","properties":{"name":"Sorento Flats","Address":"1414 E. Yesler Way","City":"Seattle","Zip":981225508,"address":"1414 E. Yesler Way, Seattle, WA 981225508","units":153,"built":2017},"geometry":{"type":"Point","coordinates":[-122.3136425,47.60195]}},{"type":"Feature","properties":{"name":"The Whittaker","Address":"4755 Fauntleroy Way S.W.","City":"Seattle","Zip":981164503,"address":"4755 Fauntleroy Way S.W., Seattle, WA 981164503","units":389,"built":2016},"geometry":{"type":"Point","coordinates":[-122.3818677,47.5596291]}},{"type":"Feature","properties":{"name":"Kinects","Address":"1823 Minor Ave.","City":"Seattle","Zip":981011413,"address":"1823 Minor Ave., Seattle, WA 981011413","units":357,"built":2017},"geometry":{"type":"Point","coordinates":[-122.3316603,47.6171966]}},{"type":"Feature","properties":{"name":"Augusta Apartments","Address":"4041 Roosevelt Way N.E.","City":"Seattle","Zip":981056440,"address":"4041 Roosevelt Way N.E., Seattle, WA 981056440","units":209,"built":2017},"geometry":{"type":"Point","coordinates":[-122.3184868,47.6565457]}}]}